{"type":"FeatureCollection", "features": [
{"type":"Feature","geometry":{"type":"Point","coordinates":[-4.418243,36.726642,0]},"properties":{"name":"Salida | 15.55 h.","styleUrl":"#icon-1899-0288D1-nodesc","icon-opacity":1,"icon-color":"#0288d1","icon-scale":1,"icon-offset":[32,64],"icon-offset-units":["pixels","insetPixels"],"icon":"https://www.gstatic.com/mapspro/images/stock/503-wht-blank_maps.png"}},
{"type":"Feature","geometry":{"type":"Point","coordinates":[-4.418102,36.726643,0]},"properties":{"name":"Encierro | 1.00 h.","styleUrl":"#icon-1899-0288D1-nodesc","icon-opacity":1,"icon-color":"#0288d1","icon-scale":1,"icon-offset":[32,64],"icon-offset-units":["pixels","insetPixels"],"icon":"https://www.gstatic.com/mapspro/images/stock/503-wht-blank_maps.png"}},
{"type":"Feature","geometry":{"type":"Point","coordinates":[-4.422077,36.72093,0]},"properties":{"name":"Tribuna | 18.25 h.","styleUrl":"#icon-1899-0288D1-nodesc","icon-opacity":1,"icon-color":"#0288d1","icon-scale":1,"icon-offset":[32,64],"icon-offset-units":["pixels","insetPixels"],"icon":"https://www.gstatic.com/mapspro/images/stock/503-wht-blank_maps.png"}},
{"type":"Feature","geometry":{"type":"Point","coordinates":[-4.41995,36.719705,0]},"properties":{"name":"Torre Sur | 20.25 h.","styleUrl":"#icon-1899-0288D1-nodesc","icon-opacity":1,"icon-color":"#0288d1","icon-scale":1,"icon-offset":[32,64],"icon-offset-units":["pixels","insetPixels"],"icon":"https://www.gstatic.com/mapspro/images/stock/503-wht-blank_maps.png"}},
{"type":"Feature","geometry":{"type":"Point","coordinates":[-4.419252,36.720155,0]},"properties":{"name":"Catedral | 20.35 h.","styleUrl":"#icon-1899-0288D1-nodesc","icon-opacity":1,"icon-color":"#0288d1","icon-scale":1,"icon-offset":[32,64],"icon-offset-units":["pixels","insetPixels"],"icon":"https://www.gstatic.com/mapspro/images/stock/503-wht-blank_maps.png"}}
]}