{"type":"FeatureCollection", "features": [
{"type":"Feature","geometry":{"type":"Point","coordinates":[-4.421592,36.729391,0]},"properties":{"name":"Salida | 14.15 h.","styleUrl":"#icon-1899-0288D1-nodesc","icon-opacity":1,"icon-color":"#0288d1","icon-scale":1,"icon-offset":[32,64],"icon-offset-units":["pixels","insetPixels"],"icon":"https://www.gstatic.com/mapspro/images/stock/503-wht-blank_maps.png"}},
{"type":"Feature","geometry":{"type":"Point","coordinates":[-4.421671,36.729446,0]},"properties":{"name":"Encierro | 22.50 h.","styleUrl":"#icon-1899-0288D1-nodesc","icon-opacity":1,"icon-color":"#0288d1","icon-scale":1,"icon-offset":[32,64],"icon-offset-units":["pixels","insetPixels"],"icon":"https://www.gstatic.com/mapspro/images/stock/503-wht-blank_maps.png"}},
{"type":"Feature","geometry":{"type":"Point","coordinates":[-4.422257,36.720889,0]},"properties":{"name":"Tribuna | 16.30 h.","styleUrl":"#icon-1899-0288D1-nodesc","icon-opacity":1,"icon-color":"#0288d1","icon-scale":1,"icon-offset":[32,64],"icon-offset-units":["pixels","insetPixels"],"icon":"https://www.gstatic.com/mapspro/images/stock/503-wht-blank_maps.png"}},
{"type":"Feature","geometry":{"type":"Point","coordinates":[-4.419951,36.7197,0]},"properties":{"name":"Torre Sur | 18.30 h.","styleUrl":"#icon-1899-0288D1-nodesc","icon-opacity":1,"icon-color":"#0288d1","icon-scale":1,"icon-offset":[32,64],"icon-offset-units":["pixels","insetPixels"],"icon":"https://www.gstatic.com/mapspro/images/stock/503-wht-blank_maps.png"}},
{"type":"Feature","geometry":{"type":"Point","coordinates":[-4.419255,36.720144,0]},"properties":{"name":"Catedral | 18.50 h.","styleUrl":"#icon-1899-0288D1-nodesc","icon-opacity":1,"icon-color":"#0288d1","icon-scale":1,"icon-offset":[32,64],"icon-offset-units":["pixels","insetPixels"],"icon":"https://www.gstatic.com/mapspro/images/stock/503-wht-blank_maps.png"}}
]}